Location,Sentiment,lat,lon
Kondhwa,Neutral,18.4779905,73.8940627
Vishwakarma University,Positive,18.4603162,73.8835996
Vishwakarma University,Positive,18.4628,73.8678
Koregaon Park,Positive,18.5363,73.8938
Pune Station,Negative,18.5271848,73.8729945
Magarpatta,Negative,18.5111545,73.9273823
